[
  {"name": "ЦАО — Тверской", "lat": 55.7652, "lon": 37.6050, "value": 38},
  {"name": "ЦАО — Пресненский", "lat": 55.7601, "lon": 37.5547, "value": 36},
  {"name": "ЦАО — Басманный", "lat": 55.7665, "lon": 37.6806, "value": 34},
  {"name": "ЦАО — Таганский", "lat": 55.7323, "lon": 37.6659, "value": 33},

  {"name": "САО — Беговой", "lat": 55.7860, "lon": 37.5590, "value": 37},
  {"name": "САО — Хорошевский", "lat": 55.7771, "lon": 37.5164, "value": 31},
  {"name": "САО — Савеловский", "lat": 55.7920, "lon": 37.5885, "value": 32},
  {"name": "САО — Тимирязевский", "lat": 55.8172, "lon": 37.5688, "value": 29},

  {"name": "СВАО — Алексеевский", "lat": 55.8131, "lon": 37.6443, "value": 35},
  {"name": "СВАО — Марьина роща", "lat": 55.7963, "lon": 37.6168, "value": 33},
  {"name": "СВАО — Останкинский", "lat": 55.8207, "lon": 37.6003, "value": 27},
  {"name": "СВАО — Медведково", "lat": 55.8646, "lon": 37.6611, "value": 24},

  {"name": "ВАО — Сокольники", "lat": 55.7924, "lon": 37.6802, "value": 34},
  {"name": "ВАО — Преображенское", "lat": 55.7968, "lon": 37.7283, "value": 30},
  {"name": "ВАО — Новогиреево", "lat": 55.7511, "lon": 37.8063, "value": 26},
  {"name": "ВАО — Измайлово", "lat": 55.7867, "lon": 37.7990, "value": 29},

  {"name": "ЮВАО — Текстильщики", "lat": 55.7084, "lon": 37.7421, "value": 28},
  {"name": "ЮВАО — Рязанский", "lat": 55.7180, "lon": 37.7923, "value": 27},
  {"name": "ЮВАО — Люблино", "lat": 55.6774, "lon": 37.7530, "value": 25},
  {"name": "ЮВАО — Кузьминки", "lat": 55.7051, "lon": 37.7657, "value": 26},

  {"name": "ЮАО — Даниловский", "lat": 55.7050, "lon": 37.6409, "value": 31},
  {"name": "ЮАО — Нагатино", "lat": 55.6838, "lon": 37.6487, "value": 29},
  {"name": "ЮАО — Чертаново Северное", "lat": 55.6341, "lon": 37.5867, "value": 24},
  {"name": "ЮАО — Бирюлево Восточное", "lat": 55.5883, "lon": 37.6618, "value": 22},

  {"name": "ЮЗАО — Гагаринский", "lat": 55.6986, "lon": 37.5432, "value": 32},
  {"name": "ЮЗАО — Коньково", "lat": 55.6336, "lon": 37.5170, "value": 30},
  {"name": "ЮЗАО — Теплый стан", "lat": 55.6181, "lon": 37.5054, "value": 28},
  {"name": "ЮЗАО — Ясенево", "lat": 55.6058, "lon": 37.5336, "value": 27},

  {"name": "ЗАО — Филевский парк", "lat": 55.7398, "lon": 37.4970, "value": 33},
  {"name": "ЗАО — Кунцево", "lat": 55.7313, "lon": 37.4352, "value": 29},
  {"name": "ЗАО — Солнцево", "lat": 55.6524, "lon": 37.4389, "value": 26},
  {"name": "ЗАО — Внуково", "lat": 55.6067, "lon": 37.2834, "value": 23}
]
