[
  {
    "id": 1,
    "brand": "Шоколадница",
    "name": "Шоколадница",
    "category": "Рестораны и кафе",
    "lat": 55.74719,
    "lon": 37.65403,
    "address": "Москва, адрес 1",
    "avgCheck": 850,
    "cashback": 5
  },
  {
    "id": 2,
    "brand": "ВелоСтрана",
    "name": "ВелоСтрана",
    "category": "Спорттовары",
    "lat": 55.84441,
    "lon": 37.70526,
    "address": "Москва, адрес 2",
    "avgCheck": 7000,
    "cashback": 5
  },
  {
    "id": 3,
    "brand": "Формула Кино",
    "name": "Формула Кино",
    "category": "Развлечения",
    "lat": 55.83721,
    "lon": 37.77184,
    "address": "Москва, адрес 3",
    "avgCheck": 600,
    "cashback": 4
  },
  {
    "id": 4,
    "brand": "Shell",
    "name": "Shell",
    "category": "АЗС",
    "lat": 55.96685,
    "lon": 37.50194,
    "address": "Москва, адрес 4",
    "avgCheck": 2020,
    "cashback": 3
  },
  {
    "id": 5,
    "brand": "Синема Парк",
    "name": "Синема Парк",
    "category": "Развлечения",
    "lat": 55.94202,
    "lon": 37.41482,
    "address": "Москва, адрес 5",
    "avgCheck": 700,
    "cashback": 6
  },
  {
    "id": 6,
    "brand": "Спортмастер",
    "name": "Спортмастер",
    "category": "Спорттовары",
    "lat": 55.67523,
    "lon": 37.82164,
    "address": "Москва, адрес 6",
    "avgCheck": 4000,
    "cashback": 4
  },
  {
    "id": 7,
    "brand": "Синема Парк",
    "name": "Синема Парк",
    "category": "Развлечения",
    "lat": 55.92658,
    "lon": 37.89349,
    "address": "Москва, адрес 7",
    "avgCheck": 700,
    "cashback": 3
  },
  {
    "id": 8,
    "brand": "KFC",
    "name": "KFC",
    "category": "Рестораны и кафе",
    "lat": 55.99122,
    "lon": 37.41623,
    "address": "Москва, адрес 8",
    "avgCheck": 600,
    "cashback": 5
  },
  {
    "id": 9,
    "brand": "KFC",
    "name": "KFC",
    "category": "Рестораны и кафе",
    "lat": 55.60972,
    "lon": 37.51596,
    "address": "Москва, адрес 9",
    "avgCheck": 600,
    "cashback": 6
  },
  {
    "id": 10,
    "brand": "Спорт Депо",
    "name": "Спорт Депо",
    "category": "Спорттовары",
    "lat": 55.87062,
    "lon": 37.84756,
    "address": "Москва, адрес 10",
    "avgCheck": 3800,
    "cashback": 4
  },
  {
    "id": 11,
    "brand": "Лукойл",
    "name": "Лукойл",
    "category": "АЗС",
    "lat": 55.75208,
    "lon": 37.59299,
    "address": "Москва, адрес 11",
    "avgCheck": 2020,
    "cashback": 6
  },
  {
    "id": 12,
    "brand": "Starbucks",
    "name": "Starbucks",
    "category": "Рестораны и кафе",
    "lat": 55.77379,
    "lon": 37.40717,
    "address": "Москва, адрес 12",
    "avgCheck": 450,
    "cashback": 6
  },
  {
    "id": 13,
    "brand": "Газпромнефть",
    "name": "Газпромнефть",
    "category": "АЗС",
    "lat": 55.78834,
    "lon": 37.72705,
    "address": "Москва, адрес 13",
    "avgCheck": 2020,
    "cashback": 7
  },
  {
    "id": 14,
    "brand": "Центральный Детский Мир",
    "name": "Центральный Детский Мир",
    "category": "Развлечения",
    "lat": 55.80784,
    "lon": 37.43366,
    "address": "Москва, адрес 14",
    "avgCheck": 1500,
    "cashback": 6
  },
  {
    "id": 15,
    "brand": "Лукойл",
    "name": "Лукойл",
    "category": "АЗС",
    "lat": 55.6194,
    "lon": 37.44418,
    "address": "Москва, адрес 15",
    "avgCheck": 2020,
    "cashback": 3
  },
  {
    "id": 16,
    "brand": "Центральный Детский Мир",
    "name": "Центральный Детский Мир",
    "category": "Развлечения",
    "lat": 55.69541,
    "lon": 37.67718,
    "address": "Москва, адрес 16",
    "avgCheck": 1500,
    "cashback": 4
  },
  {
    "id": 17,
    "brand": "Кант",
    "name": "Кант",
    "category": "Спорттовары",
    "lat": 55.88459,
    "lon": 37.65297,
    "address": "Москва, адрес 17",
    "avgCheck": 4500,
    "cashback": 5
  },
  {
    "id": 18,
    "brand": "Газпромнефть",
    "name": "Газпромнефть",
    "category": "АЗС",
    "lat": 55.90606,
    "lon": 37.79985,
    "address": "Москва, адрес 18",
    "avgCheck": 2020,
    "cashback": 4
  },
  {
    "id": 19,
    "brand": "Спортмастер",
    "name": "Спортмастер",
    "category": "Спорттовары",
    "lat": 55.78094,
    "lon": 37.7217,
    "address": "Москва, адрес 19",
    "avgCheck": 4000,
    "cashback": 7
  },
  {
    "id": 20,
    "brand": "Burger King",
    "name": "Burger King",
    "category": "Рестораны и кафе",
    "lat": 55.76862,
    "lon": 37.58325,
    "address": "Москва, адрес 20",
    "avgCheck": 650,
    "cashback": 7
  },
  {
    "id": 21,
    "brand": "Мосгорпарк",
    "name": "Мосгорпарк",
    "category": "Развлечения",
    "lat": 55.74219,
    "lon": 37.68789,
    "address": "Москва, адрес 21",
    "avgCheck": 500,
    "cashback": 4
  },
  {
    "id": 22,
    "brand": "Shell",
    "name": "Shell",
    "category": "АЗС",
    "lat": 55.89621,
    "lon": 37.81064,
    "address": "Москва, адрес 22",
    "avgCheck": 2020,
    "cashback": 6
  },
  {
    "id": 23,
    "brand": "Газпромнефть",
    "name": "Газпромнефть",
    "category": "АЗС",
    "lat": 55.71096,
    "lon": 37.6288,
    "address": "Москва, адрес 23",
    "avgCheck": 2020,
    "cashback": 6
  },
  {
    "id": 24,
    "brand": "Центральный Детский Мир",
    "name": "Центральный Детский Мир",
    "category": "Развлечения",
    "lat": 55.88279,
    "lon": 37.7872,
    "address": "Москва, адрес 24",
    "avgCheck": 1500,
    "cashback": 5
  },
  {
    "id": 25,
    "brand": "Альма",
    "name": "Альма",
    "category": "Рестораны и кафе",
    "lat": 55.8595,
    "lon": 37.56764,
    "address": "Москва, адрес 25",
    "avgCheck": 2200,
    "cashback": 5
  },
  {
    "id": 26,
    "brand": "KFC",
    "name": "KFC",
    "category": "Рестораны и кафе",
    "lat": 55.60546,
    "lon": 37.55133,
    "address": "Москва, адрес 26",
    "avgCheck": 600,
    "cashback": 7
  },
  {
    "id": 27,
    "brand": "Центральный Детский Мир",
    "name": "Центральный Детский Мир",
    "category": "Развлечения",
    "lat": 55.91827,
    "lon": 37.58791,
    "address": "Москва, адрес 27",
    "avgCheck": 1500,
    "cashback": 6
  },
  {
    "id": 28,
    "brand": "Burger King",
    "name": "Burger King",
    "category": "Рестораны и кафе",
    "lat": 55.88956,
    "lon": 37.83997,
    "address": "Москва, адрес 28",
    "avgCheck": 650,
    "cashback": 5
  },
  {
    "id": 29,
    "brand": "Мосгорпарк",
    "name": "Мосгорпарк",
    "category": "Развлечения",
    "lat": 55.62848,
    "lon": 37.55766,
    "address": "Москва, адрес 29",
    "avgCheck": 500,
    "cashback": 4
  },
  {
    "id": 30,
    "brand": "ЕКА",
    "name": "ЕКА",
    "category": "АЗС",
    "lat": 55.9075,
    "lon": 37.40787,
    "address": "Москва, адрес 30",
    "avgCheck": 2020,
    "cashback": 3
  },
  {
    "id": 31,
    "brand": "ВелоСтрана",
    "name": "ВелоСтрана",
    "category": "Спорттовары",
    "lat": 55.9347,
    "lon": 37.87501,
    "address": "Москва, адрес 31",
    "avgCheck": 7000,
    "cashback": 7
  },
  {
    "id": 32,
    "brand": "Мосгорпарк",
    "name": "Мосгорпарк",
    "category": "Развлечения",
    "lat": 55.88218,
    "lon": 37.46162,
    "address": "Москва, адрес 32",
    "avgCheck": 500,
    "cashback": 6
  },
  {
    "id": 33,
    "brand": "Лукойл",
    "name": "Лукойл",
    "category": "АЗС",
    "lat": 55.91485,
    "lon": 37.57279,
    "address": "Москва, адрес 33",
    "avgCheck": 2020,
    "cashback": 7
  },
  {
    "id": 34,
    "brand": "Лукойл",
    "name": "Лукойл",
    "category": "АЗС",
    "lat": 55.98158,
    "lon": 37.7881,
    "address": "Москва, адрес 34",
    "avgCheck": 2020,
    "cashback": 7
  },
  {
    "id": 35,
    "brand": "Центральный Детский Мир",
    "name": "Центральный Детский Мир",
    "category": "Развлечения",
    "lat": 55.79953,
    "lon": 37.68671,
    "address": "Москва, адрес 35",
    "avgCheck": 1500,
    "cashback": 7
  },
  {
    "id": 36,
    "brand": "Спортмастер",
    "name": "Спортмастер",
    "category": "Спорттовары",
    "lat": 55.66692,
    "lon": 37.5454,
    "address": "Москва, адрес 36",
    "avgCheck": 4000,
    "cashback": 7
  },
  {
    "id": 37,
    "brand": "KFC",
    "name": "KFC",
    "category": "Рестораны и кафе",
    "lat": 55.77743,
    "lon": 37.44569,
    "address": "Москва, адрес 37",
    "avgCheck": 600,
    "cashback": 3
  },
  {
    "id": 38,
    "brand": "Лукойл",
    "name": "Лукойл",
    "category": "АЗС",
    "lat": 55.66665,
    "lon": 37.80496,
    "address": "Москва, адрес 38",
    "avgCheck": 2020,
    "cashback": 5
  },
  {
    "id": 39,
    "brand": "Шоколадница",
    "name": "Шоколадница",
    "category": "Рестораны и кафе",
    "lat": 55.85811,
    "lon": 37.55484,
    "address": "Москва, адрес 39",
    "avgCheck": 850,
    "cashback": 3
  },
  {
    "id": 40,
    "brand": "Газпромнефть",
    "name": "Газпромнефть",
    "category": "АЗС",
    "lat": 55.67211,
    "lon": 37.84365,
    "address": "Москва, адрес 40",
    "avgCheck": 2020,
    "cashback": 4
  },
  {
    "id": 41,
    "brand": "Osteria Mario",
    "name": "Osteria Mario",
    "category": "Рестораны и кафе",
    "lat": 55.64138,
    "lon": 37.88375,
    "address": "Москва, адрес 41",
    "avgCheck": 1800,
    "cashback": 3
  },
  {
    "id": 42,
    "brand": "Газпромнефть",
    "name": "Газпромнефть",
    "category": "АЗС",
    "lat": 55.96711,
    "lon": 37.6192,
    "address": "Москва, адрес 42",
    "avgCheck": 2020,
    "cashback": 7
  },
  {
    "id": 43,
    "brand": "Каток ВДНХ",
    "name": "Каток ВДНХ",
    "category": "Развлечения",
    "lat": 55.86432,
    "lon": 37.41067,
    "address": "Москва, адрес 43",
    "avgCheck": 900,
    "cashback": 5
  },
  {
    "id": 44,
    "brand": "Спорт Депо",
    "name": "Спорт Депо",
    "category": "Спорттовары",
    "lat": 55.6623,
    "lon": 37.78642,
    "address": "Москва, адрес 44",
    "avgCheck": 3800,
    "cashback": 7
  },
  {
    "id": 45,
    "brand": "Центральный Детский Мир",
    "name": "Центральный Детский Мир",
    "category": "Развлечения",
    "lat": 55.66237,
    "lon": 37.74488,
    "address": "Москва, адрес 45",
    "avgCheck": 1500,
    "cashback": 6
  },
  {
    "id": 46,
    "brand": "ЕКА",
    "name": "ЕКА",
    "category": "АЗС",
    "lat": 55.89744,
    "lon": 37.71757,
    "address": "Москва, адрес 46",
    "avgCheck": 2020,
    "cashback": 6
  },
  {
    "id": 47,
    "brand": "ВелоСтрана",
    "name": "ВелоСтрана",
    "category": "Спорттовары",
    "lat": 55.9636,
    "lon": 37.67741,
    "address": "Москва, адрес 47",
    "avgCheck": 7000,
    "cashback": 6
  },
  {
    "id": 48,
    "brand": "Триал-Спорт",
    "name": "Триал-Спорт",
    "category": "Спорттовары",
    "lat": 55.95819,
    "lon": 37.57506,
    "address": "Москва, адрес 48",
    "avgCheck": 5000,
    "cashback": 4
  },
  {
    "id": 49,
    "brand": "Кант",
    "name": "Кант",
    "category": "Спорттовары",
    "lat": 55.87406,
    "lon": 37.42707,
    "address": "Москва, адрес 49",
    "avgCheck": 4500,
    "cashback": 7
  },
  {
    "id": 50,
    "brand": "Каток ВДНХ",
    "name": "Каток ВДНХ",
    "category": "Развлечения",
    "lat": 55.96744,
    "lon": 37.6843,
    "address": "Москва, адрес 50",
    "avgCheck": 900,
    "cashback": 6
  },
  {
    "id": 51,
    "brand": "Центральный Детский Мир",
    "name": "Центральный Детский Мир",
    "category": "Развлечения",
    "lat": 55.66114,
    "lon": 37.48603,
    "address": "Москва, адрес 51",
    "avgCheck": 1500,
    "cashback": 4
  },
  {
    "id": 52,
    "brand": "ВелоСтрана",
    "name": "ВелоСтрана",
    "category": "Спорттовары",
    "lat": 55.62792,
    "lon": 37.74085,
    "address": "Москва, адрес 52",
    "avgCheck": 7000,
    "cashback": 6
  },
  {
    "id": 53,
    "brand": "Спорт Депо",
    "name": "Спорт Депо",
    "category": "Спорттовары",
    "lat": 55.66107,
    "lon": 37.64891,
    "address": "Москва, адрес 53",
    "avgCheck": 3800,
    "cashback": 3
  },
  {
    "id": 54,
    "brand": "ЕКА",
    "name": "ЕКА",
    "category": "АЗС",
    "lat": 55.98639,
    "lon": 37.84944,
    "address": "Москва, адрес 54",
    "avgCheck": 2020,
    "cashback": 7
  },
  {
    "id": 55,
    "brand": "Альма",
    "name": "Альма",
    "category": "Рестораны и кафе",
    "lat": 55.87177,
    "lon": 37.52972,
    "address": "Москва, адрес 55",
    "avgCheck": 2200,
    "cashback": 7
  },
  {
    "id": 56,
    "brand": "Альма",
    "name": "Альма",
    "category": "Рестораны и кафе",
    "lat": 55.76765,
    "lon": 37.58265,
    "address": "Москва, адрес 56",
    "avgCheck": 2200,
    "cashback": 5
  },
  {
    "id": 57,
    "brand": "Газпромнефть",
    "name": "Газпромнефть",
    "category": "АЗС",
    "lat": 55.9221,
    "lon": 37.85748,
    "address": "Москва, адрес 57",
    "avgCheck": 2020,
    "cashback": 6
  },
  {
    "id": 58,
    "brand": "Газпромнефть",
    "name": "Газпромнефть",
    "category": "АЗС",
    "lat": 55.6867,
    "lon": 37.45049,
    "address": "Москва, адрес 58",
    "avgCheck": 2020,
    "cashback": 5
  },
  {
    "id": 59,
    "brand": "KFC",
    "name": "KFC",
    "category": "Рестораны и кафе",
    "lat": 55.99612,
    "lon": 37.71737,
    "address": "Москва, адрес 59",
    "avgCheck": 600,
    "cashback": 4
  },
  {
    "id": 60,
    "brand": "Каро",
    "name": "Каро",
    "category": "Развлечения",
    "lat": 55.93482,
    "lon": 37.66965,
    "address": "Москва, адрес 60",
    "avgCheck": 650,
    "cashback": 7
  },
  {
    "id": 61,
    "brand": "Каток ВДНХ",
    "name": "Каток ВДНХ",
    "category": "Развлечения",
    "lat": 55.83058,
    "lon": 37.58464,
    "address": "Москва, адрес 61",
    "avgCheck": 900,
    "cashback": 3
  },
  {
    "id": 62,
    "brand": "Osteria Mario",
    "name": "Osteria Mario",
    "category": "Рестораны и кафе",
    "lat": 55.92936,
    "lon": 37.82846,
    "address": "Москва, адрес 62",
    "avgCheck": 1800,
    "cashback": 7
  },
  {
    "id": 63,
    "brand": "Starbucks",
    "name": "Starbucks",
    "category": "Рестораны и кафе",
    "lat": 55.63447,
    "lon": 37.47159,
    "address": "Москва, адрес 63",
    "avgCheck": 450,
    "cashback": 6
  },
  {
    "id": 64,
    "brand": "Кант",
    "name": "Кант",
    "category": "Спорттовары",
    "lat": 55.73813,
    "lon": 37.74014,
    "address": "Москва, адрес 64",
    "avgCheck": 4500,
    "cashback": 4
  },
  {
    "id": 65,
    "brand": "Кант",
    "name": "Кант",
    "category": "Спорттовары",
    "lat": 55.70989,
    "lon": 37.74994,
    "address": "Москва, адрес 65",
    "avgCheck": 4500,
    "cashback": 6
  },
  {
    "id": 66,
    "brand": "Osteria Mario",
    "name": "Osteria Mario",
    "category": "Рестораны и кафе",
    "lat": 55.66515,
    "lon": 37.61403,
    "address": "Москва, адрес 66",
    "avgCheck": 1800,
    "cashback": 6
  },
  {
    "id": 67,
    "brand": "Forward",
    "name": "Forward",
    "category": "Спорттовары",
    "lat": 55.89249,
    "lon": 37.49413,
    "address": "Москва, адрес 67",
    "avgCheck": 3500,
    "cashback": 4
  },
  {
    "id": 68,
    "brand": "Каток ВДНХ",
    "name": "Каток ВДНХ",
    "category": "Развлечения",
    "lat": 55.95664,
    "lon": 37.68834,
    "address": "Москва, адрес 68",
    "avgCheck": 900,
    "cashback": 5
  },
  {
    "id": 69,
    "brand": "Каток ВДНХ",
    "name": "Каток ВДНХ",
    "category": "Развлечения",
    "lat": 55.91336,
    "lon": 37.82298,
    "address": "Москва, адрес 69",
    "avgCheck": 900,
    "cashback": 3
  },
  {
    "id": 70,
    "brand": "Osteria Mario",
    "name": "Osteria Mario",
    "category": "Рестораны и кафе",
    "lat": 55.83,
    "lon": 37.60257,
    "address": "Москва, адрес 70",
    "avgCheck": 1800,
    "cashback": 6
  },
  {
    "id": 71,
    "brand": "Starbucks",
    "name": "Starbucks",
    "category": "Рестораны и кафе",
    "lat": 55.89733,
    "lon": 37.71447,
    "address": "Москва, адрес 71",
    "avgCheck": 450,
    "cashback": 4
  },
  {
    "id": 72,
    "brand": "Формула Кино",
    "name": "Формула Кино",
    "category": "Развлечения",
    "lat": 55.65764,
    "lon": 37.57901,
    "address": "Москва, адрес 72",
    "avgCheck": 600,
    "cashback": 6
  },
  {
    "id": 73,
    "brand": "Forward",
    "name": "Forward",
    "category": "Спорттовары",
    "lat": 55.97514,
    "lon": 37.71518,
    "address": "Москва, адрес 73",
    "avgCheck": 3500,
    "cashback": 4
  },
  {
    "id": 74,
    "brand": "Триал-Спорт",
    "name": "Триал-Спорт",
    "category": "Спорттовары",
    "lat": 55.91325,
    "lon": 37.60669,
    "address": "Москва, адрес 74",
    "avgCheck": 5000,
    "cashback": 5
  },
  {
    "id": 75,
    "brand": "Кант",
    "name": "Кант",
    "category": "Спорттовары",
    "lat": 55.75663,
    "lon": 37.48961,
    "address": "Москва, адрес 75",
    "avgCheck": 4500,
    "cashback": 4
  },
  {
    "id": 76,
    "brand": "Каро",
    "name": "Каро",
    "category": "Развлечения",
    "lat": 55.60318,
    "lon": 37.59298,
    "address": "Москва, адрес 76",
    "avgCheck": 650,
    "cashback": 4
  },
  {
    "id": 77,
    "brand": "Shell",
    "name": "Shell",
    "category": "АЗС",
    "lat": 55.78222,
    "lon": 37.88475,
    "address": "Москва, адрес 77",
    "avgCheck": 2020,
    "cashback": 7
  },
  {
    "id": 78,
    "brand": "Спортмастер",
    "name": "Спортмастер",
    "category": "Спорттовары",
    "lat": 55.89318,
    "lon": 37.89729,
    "address": "Москва, адрес 78",
    "avgCheck": 4000,
    "cashback": 5
  },
  {
    "id": 79,
    "brand": "Триал-Спорт",
    "name": "Триал-Спорт",
    "category": "Спорттовары",
    "lat": 55.67947,
    "lon": 37.68167,
    "address": "Москва, адрес 79",
    "avgCheck": 5000,
    "cashback": 3
  },
  {
    "id": 80,
    "brand": "Альма",
    "name": "Альма",
    "category": "Рестораны и кафе",
    "lat": 55.91155,
    "lon": 37.53912,
    "address": "Москва, адрес 80",
    "avgCheck": 2200,
    "cashback": 7
  },
  {
    "id": 81,
    "brand": "Спортмастер",
    "name": "Спортмастер",
    "category": "Спорттовары",
    "lat": 55.74739,
    "lon": 37.83887,
    "address": "Москва, адрес 81",
    "avgCheck": 4000,
    "cashback": 7
  },
  {
    "id": 82,
    "brand": "Формула Кино",
    "name": "Формула Кино",
    "category": "Развлечения",
    "lat": 55.67556,
    "lon": 37.41928,
    "address": "Москва, адрес 82",
    "avgCheck": 600,
    "cashback": 6
  },
  {
    "id": 83,
    "brand": "Спорт Депо",
    "name": "Спорт Депо",
    "category": "Спорттовары",
    "lat": 55.67474,
    "lon": 37.44509,
    "address": "Москва, адрес 83",
    "avgCheck": 3800,
    "cashback": 5
  },
  {
    "id": 84,
    "brand": "Триал-Спорт",
    "name": "Триал-Спорт",
    "category": "Спорттовары",
    "lat": 55.62084,
    "lon": 37.5285,
    "address": "Москва, адрес 84",
    "avgCheck": 5000,
    "cashback": 5
  },
  {
    "id": 85,
    "brand": "Shell",
    "name": "Shell",
    "category": "АЗС",
    "lat": 55.7035,
    "lon": 37.58098,
    "address": "Москва, адрес 85",
    "avgCheck": 2020,
    "cashback": 5
  },
  {
    "id": 86,
    "brand": "Спортмастер",
    "name": "Спортмастер",
    "category": "Спорттовары",
    "lat": 55.65146,
    "lon": 37.51393,
    "address": "Москва, адрес 86",
    "avgCheck": 4000,
    "cashback": 4
  },
  {
    "id": 87,
    "brand": "Кант",
    "name": "Кант",
    "category": "Спорттовары",
    "lat": 55.74927,
    "lon": 37.75269,
    "address": "Москва, адрес 87",
    "avgCheck": 4500,
    "cashback": 6
  },
  {
    "id": 88,
    "brand": "Газпромнефть",
    "name": "Газпромнефть",
    "category": "АЗС",
    "lat": 55.90906,
    "lon": 37.48564,
    "address": "Москва, адрес 88",
    "avgCheck": 2020,
    "cashback": 7
  },
  {
    "id": 89,
    "brand": "Формула Кино",
    "name": "Формула Кино",
    "category": "Развлечения",
    "lat": 55.64748,
    "lon": 37.84061,
    "address": "Москва, адрес 89",
    "avgCheck": 600,
    "cashback": 5
  },
  {
    "id": 90,
    "brand": "Каро",
    "name": "Каро",
    "category": "Развлечения",
    "lat": 55.96501,
    "lon": 37.57965,
    "address": "Москва, адрес 90",
    "avgCheck": 650,
    "cashback": 3
  },
  {
    "id": 91,
    "brand": "Формула Кино",
    "name": "Формула Кино",
    "category": "Развлечения",
    "lat": 55.86941,
    "lon": 37.44329,
    "address": "Москва, адрес 91",
    "avgCheck": 600,
    "cashback": 7
  },
  {
    "id": 92,
    "brand": "KFC",
    "name": "KFC",
    "category": "Рестораны и кафе",
    "lat": 55.75034,
    "lon": 37.80946,
    "address": "Москва, адрес 92",
    "avgCheck": 600,
    "cashback": 3
  },
  {
    "id": 93,
    "brand": "Спортмастер",
    "name": "Спортмастер",
    "category": "Спорттовары",
    "lat": 55.77895,
    "lon": 37.66571,
    "address": "Москва, адрес 93",
    "avgCheck": 4000,
    "cashback": 6
  },
  {
    "id": 94,
    "brand": "Кант",
    "name": "Кант",
    "category": "Спорттовары",
    "lat": 55.95515,
    "lon": 37.68849,
    "address": "Москва, адрес 94",
    "avgCheck": 4500,
    "cashback": 5
  },
  {
    "id": 95,
    "brand": "Лукойл",
    "name": "Лукойл",
    "category": "АЗС",
    "lat": 55.91268,
    "lon": 37.44999,
    "address": "Москва, адрес 95",
    "avgCheck": 2020,
    "cashback": 7
  },
  {
    "id": 96,
    "brand": "Синема Парк",
    "name": "Синема Парк",
    "category": "Развлечения",
    "lat": 55.75343,
    "lon": 37.72382,
    "address": "Москва, адрес 96",
    "avgCheck": 700,
    "cashback": 6
  },
  {
    "id": 97,
    "brand": "Газпромнефть",
    "name": "Газпромнефть",
    "category": "АЗС",
    "lat": 55.70452,
    "lon": 37.48292,
    "address": "Москва, адрес 97",
    "avgCheck": 2020,
    "cashback": 7
  },
  {
    "id": 98,
    "brand": "KFC",
    "name": "KFC",
    "category": "Рестораны и кафе",
    "lat": 55.66602,
    "lon": 37.84776,
    "address": "Москва, адрес 98",
    "avgCheck": 600,
    "cashback": 4
  },
  {
    "id": 99,
    "brand": "Центральный Детский Мир",
    "name": "Центральный Детский Мир",
    "category": "Развлечения",
    "lat": 55.92797,
    "lon": 37.76096,
    "address": "Москва, адрес 99",
    "avgCheck": 1500,
    "cashback": 4
  },
  {
    "id": 100,
    "brand": "Каток ВДНХ",
    "name": "Каток ВДНХ",
    "category": "Развлечения",
    "lat": 55.94378,
    "lon": 37.47177,
    "address": "Москва, адрес 100",
    "avgCheck": 900,
    "cashback": 3
  }
]